{
  "Kanishk Surgical & Super Specialty Hospital, Dehradun": {
    "name": "Kanishk Surgical and Super Speciality Hospital, Dehradun, Dehradun, Uttarakhand, 248001, India",
    "lat": 30.291798,
    "lon": 78.050898
  },
  "Shri Mahant Indiresh Hospital, Dehradun": {
    "name": "Shri Mahant Indiresh Hospital, Saharanpur road, Dehradun, Uttarakhand, 248001, India",
    "lat": 30.304785,
    "lon": 78.0209032,
    "type": "hospital"
  },
  "Medilife Superspeciality Hospital: Premier Multispeciality Hospital and Private Hospital, Dehradun": {
    "name": "Botanica Private, Civic Hospital, Ottawa, Ottawa, Ontario, K1Y 4R2, Canada",
    "lat": 45.394849,
    "lon": -75.715084
  },
  "R G Hospital, Dehradun": {
    "name": "Shri Guru Ram Rai Inter College, Indresh Hospital, Dehradun, Uttarakhand, 248001, India",
    "lat": 30.259999,
    "lon": 78.032327
  },
  "Power Life care Hospital, Dehradun": {
    "name": "Care Clinic, 291/272, Kaulagarh Road, Dehradun, Dehradun, Uttarakhand, 248001, India",
    "lat": 30.338277,
    "lon": 78.020613
  },
  "Max Super Speciality Hospital, Dehradun": {
    "name": "Max Super Speciality Hospital, Dehradun-Mussoorie Road, Rājpur, Dehradun, Uttarakhand, 248001, India",
    "lat": 30.3736727,
    "lon": 78.0746863293208,
    "type": "hospital"
  },
  "Kailash Hospital, Dehradun": {
    "name": "Kailash Hospital, Dehradun, NH7, Dehradun, Uttarakhand, 248001, India",
    "lat": 30.288311,
    "lon": 78.064203,
    "type": "hospital"
  },
  "Vibhuti Super Speciality Hospital, Dehradun": {
    "name": "Max Super Speciality Hospital, Dehradun-Mussoorie Road, Dehradun, Uttarakhand, 248001, India",
    "lat": 30.373828,
    "lon": 78.074852
  },
  "Graphic Era Hospital, Dehradun": {
    "name": "Graphic Era Hospital And Medical College, Bell Road, Mohabbewāla, Dehradun, Uttarakhand, 248001, India",
    "lat": 30.26921295,
    "lon": 77.9948842963985,
    "type": "university"
  },
  "Central Hope Town": {
    "name": "Hope Central, Overhaugh Street, Town Centre, Galashiels, Scottish Borders, Scotland, TD1 1DR, United Kingdom",
    "lat": 55.6168376,
    "lon": -2.8093688,
    "type": "association"
  },
  "Jhajra": {
    "name": "Jhājra, Vikasnagar, Dehradun, Uttarakhand, 248007, India",
    "lat": 30.344467,
    "lon": 77.914303,
    "type": "hamlet"
  },
  "ISBT, Dehradun": {
    "name": "ISBT, NH7, Maya Kund, Rishikesh, Dehradun, Uttarakhand, 249201, India",
    "lat": 30.11294325,
    "lon": 78.29572464678901,
    "type": "bus_station"
  },
  "Shimla Bypass Chowk, Dehradun": {
    "name": "Shimla Bypass Chowk, Saharanpur Road, Mājra, Dehradun, Uttarakhand, 248001, India",
    "lat": 30.29233,
    "lon": 77.99978484482371,
    "type": "yes"
  },
  "Shubash Nagar, Dehradun": {
    "name": "ashutosh nagar park, dehradun road, Rishikesh, Dehradun, Uttarakhand, 249201, India",
    "lat": 30.114695,
    "lon": 78.289728
  },
  "Transport Nagar, Dehradun": {
    "name": "Transport Nagar Road, Subhāshnagar, Dehradun, Uttarakhand, 248001, India",
    "lat": 30.2876034,
    "lon": 77.9936385,
    "type": "tertiary"
  },
  "Clock Tower, Dehradun": {
    "name": "Clock Tower, Chakrata Road, Dehradun, Uttarakhand, 248001, India",
    "lat": 30.3243226,
    "lon": 78.0418634,
    "type": "tower"
  },
  "Paltan Bazaar, Dehradun": {
    "name": "Paltan Bazar, Dehradun, Dehradun, Uttarakhand, India",
    "lat": 30.321197,
    "lon": 78.038288
  },
  "Dehradun Railway Station": {
    "name": "Dehradun Railway Station, Dehradun, Uttarakhand, 248001, India",
    "lat": 30.312477549999997,
    "lon": 78.03347079698085,
    "type": "railway"
  },
  "Patel Nagar, Dehradun": {
    "name": "Sardar Patel Park, 13, Rajpur-Mussoorie Road, Dehradun, Dehradun, Uttarakhand, 248001, India",
    "lat": 30.324871,
    "lon": 78.042166
  },
  "Jakhan, Dehradun": {
    "name": "Jakhan Rao, Bhogpur, Rishikesh, Narendra Nagar, Dehradun, Uttarakhand, India",
    "lat": 30.2342377,
    "lon": 78.2414754,
    "type": "river"
  },
  "Pacific Mall, Dehradun": {
    "name": "Pacific Mall, Rajpur Road, Rājpur, Dehradun, Uttarakhand, 248006, India",
    "lat": 30.36634195,
    "lon": 78.070463097741,
    "type": "mall"
  },
  "Doon Business Park, Dehradun": {
    "name": "Doon Vihar Park, Doon Vihar, Dehradun, Dehradun, Uttarakhand, 248001, India",
    "lat": 30.364017,
    "lon": 78.067012
  },
  "Saharanpur road, Dehradun": {
    "name": "Saharanpur Road, Mājra, Dehradun, Uttarakhand, 248001, India",
    "lat": 30.2998445,
    "lon": 78.0076742,
    "type": "primary"
  },
  "Graphic Era Deemed to be University, Dehradun": {
    "name": "Graphic Era (Deemed to be) University, 566/6, Bell Road, Dehradun, Uttarakhand, India",
    "lat": 30.267843,
    "lon": 77.995722
  },
  "Graphic Era Hill University, Dehradun": {
    "name": "Graphic Era Hill University, Dehradun Campus, St. Mary's Church Road, Ogalwāla, Dehradun, Uttarakhand, 248001, India",
    "lat": 30.27279465,
    "lon": 78.0006110061085,
    "type": "university"
  },
  "Uttaranchal University, Dehradun": {
    "name": "Uttaranchal University, Nanda Ki Chowki to UPES, Kolhūpāni, Vikasnagar, Dehradun, Uttarakhand, 248007, India",
    "lat": 30.34003905,
    "lon": 77.9512253831097,
    "type": "university"
  },
  "Nanda ki Chowki, Dehradun": {
    "name": "Nanda Ki Chowki to UPES, Kolhūpāni, Vikasnagar, Dehradun, Uttarakhand, 248007, India",
    "lat": 30.3440723,
    "lon": 77.9533277,
    "type": "tertiary"
  },
  "Tula's Institute, Dehradun": {
    "name": "Tula's Institute, tulasela road, Vikasnagar, Dehradun, Uttarakhand, 248011, India",
    "lat": 30.3427629,
    "lon": 77.88802256692044,
    "type": "college"
  },
  "Chakarta Road, Dehradun": {
    "name": "Raja road, Dehradun, Dehradun, Uttarakhand, India",
    "lat": 30.316363,
    "lon": 78.03899
  }
}